[
    {
        "name": "Palm Springs Visitor Center (Tramway Gas Station)",
        "architect": "Albert Frey & Robson Chambers",
        "year": "1965",
        "address": "2901 N Palm Canyon Dr, Palm Springs, CA 92262",
        "lat": 33.8584153,
        "lng": -116.5581827,
        "description": "The Palm Springs Visitor Center, formerly the Tramway Gas Station is an iconic building with its distinctive soaring roof. Designed by Albert Frey and Robson Chambers.",
        "googleMapsLink": "https://maps.app.goo.gl/guktTiR5c7VWWRsu7"
    },
    {
        "name": "Villa Alejo Condominiums",
        "architect": "Robert Meyers & Victor Koozin",
        "year": "1966",
        "address": "277 E Alejo Rd, Palm Springs, CA 92262",
        "lat": 33.83029437631588,
        "lng": -116.54438534741986,
        "description": "A significant example of mid-century modern condominium design in Palm Springs.",
        "googleMapsLink": "https://maps.app.goo.gl/wdezFUoBhsPyAZ668"
    },
    {
        "name": "Oasis Commercial Building",
        "architect": "E. Stewart Williams",
        "year": "1953",
        "address": "101 S Palm Canyon Dr, Palm Springs, CA 92262",
        "lat": 33.822861909903565,
        "lng": -116.54680773320858,
        "description": "An early example of desert modernism in downtown Palm Springs.",
        "googleMapsLink": "https://maps.app.goo.gl/6VMSugrxGaNAdfWt8"
    },
    {
        "name": "Ship of the Desert",
        "architect": "Adrian Wilson & Erle Webster",
        "year": "1936",
        "address": "299 W Carmino Carmelita, Palm Springs, CA 92264",
        "lat": 33.793956067535774,
        "lng": -116.54835194349292,
        "description": "An early modernist house with distinctive nautical-inspired design elements.",
        "googleMapsLink": "https://maps.app.goo.gl/XWJiG2xeVeNv9zRg7"
    },
    {
        "name": "Edris House",
        "architect": "E. Stewart Williams",
        "year": "1953",
        "address": "1030 W Cielo Dr, Palm Springs, CA 92262",
        "lat": 33.84577441934287,
        "lng": -116.56148357414169,
        "description": "A masterful example of desert modernism by E. Stewart Williams.",
        "googleMapsLink": "https://maps.app.goo.gl/r1SuNXyYGBhjnHeN6"
    },
    {
        "name": "Fire Station No. 1",
        "architect": "Albert Frey & Robson Chambers",
        "year": "1955",
        "address": "277 N Indian Canyon Dr, Palm Springs, CA 92262",
        "lat": 33.8262833,
        "lng": -116.5458145,
        "description": "A functional yet stylish fire station designed by Albert Frey and Robson Chambers.",
        "googleMapsLink": "https://maps.app.goo.gl/DGBfKzk1PoEtkygM6"
    },
    {
        "name": "Steel Development Houses",
        "architect": "Donald Wexler & Richard Harrison",
        "year": "1962",
        "address": "300 E Molino Rd, Palm Springs, CA 92262",
        "lat": 33.85876945173845,
        "lng": -116.54407281428577,
        "description": "The Steel Development Houses showcase innovative prefabricated steel construction methods pioneered by Donald Wexler.",
        "googleMapsLink": "https://maps.app.goo.gl/yuRwGn2RbQShJB9MA"
    },
    {
        "name": "Kaufmann Desert House",
        "architect": "Richard Neutra",
        "year": "1946",
        "address": "470 W Vista Chino, Palm Springs, CA 92262",
        "lat": 33.844845,
        "lng": -116.553008,
        "description": "One of the most important examples of International Style architecture in the Americas.",
        "googleMapsLink": "https://maps.app.goo.gl/Pgd5SFE271ErHrDWA"
    },
    {
        "name": "Elvis Honeymoon Hideaway (Alexander Estate)",
        "architect": "William Krisel",
        "year": "1962",
        "address": "1350 Ladera Cir, Palm Springs, CA 92262",
        "lat": 33.8411047,
        "lng": -116.5573388,
        "description": "Also known as the House of Tomorrow, where Elvis and Priscilla Presley spent their honeymoon.",
        "googleMapsLink": "https://maps.app.goo.gl/XMtYXTcdTZ3ybTsW6"
    },
    {
        "name": "Palm Springs Art Museum (and Frey House II)",
        "architect": "E. Stewart Williams",
        "year": "1976",
        "address": "101 Museum Dr, Palm Springs, CA 92262",
        "lat": 33.8241898,
        "lng": -116.5500130,
        "description": "A prime example of desert modernism by E. Stewart Williams. The Frey House II (1963 by Albert Frey)is owned by the Museum and is inaccessible as it is located on a private road, however tours can be arranged through the Museum.",
        "googleMapsLink": "https://maps.app.goo.gl/9zonE1tj5UDaX64w9"
    },
    {
        "name": "Bank of America Building",
        "architect": "Victor Gruen Associates",
        "year": "1959",
        "address": "588 S Palm Canyon Dr, Palm Springs, CA 92264",
        "lat": 33.8143816,
        "lng": -116.5458313,
        "description": "One of the finest examples of mid-century modern bank design.",
        "googleMapsLink": "https://maps.app.goo.gl/CkcXsX2VtbY2MGTPA"
    },
    {
        "name": "Palm Springs City Hall",
        "architect": "Albert Frey, E. Stewart Williams, Robson Chambers, John Porter Clark",
        "year": "1952",
        "address": "3200 E Tahquitz Canyon Way, Palm Springs, CA 92262",
        "lat": 33.8232640,
        "lng": -116.5117685,
        "description": "Features Albert Frey's distinctive design elements including the iconic brise-soleil.",
        "googleMapsLink": "https://maps.app.goo.gl/kJT7FXvsaaWxsVVb8"
    },
    {
        "name": "Racquet Club Estates",
        "architect": "William Krisel",
        "year": "1959-1962",
        "address": "2744 N Via Miraleste, Palm Springs, CA 92262",
        "lat": 33.8550943,
        "lng": -116.5403366,
        "description": "A neighborhood of Alexander Construction Company homes featuring butterfly roofs and innovative desert modern design.",
        "googleMapsLink": "https://maps.app.goo.gl/LwAGgbq4Jf76gFvw5"
    },
    {
        "name": "Del Marcos Hotel",
        "architect": "William F. Cody",
        "year": "1947",
        "address": "225 W Baristo Rd, Palm Springs, CA 92262",
        "lat": 33.8191667,
        "lng": -116.5480556,
        "description": "One of William F. Cody's earliest and most significant works in Palm Springs.",
        "googleMapsLink": "https://maps.app.goo.gl/rSbX5qvcvBmusKEJ7"
    },
    {
        "name": "Kocher-Samson Building",
        "architect": "Albert Frey & A. Lawrence Kocher",
        "year": "1934",
        "address": "766 N Palm Canyon Dr, Palm Springs, CA 92262",
        "lat": 33.83357684246016,
        "lng": -116.54676944017413,
        "description": "An early example of International Style architecture in Palm Springs, designed by Albert Frey and A. Lawrence Kocher.",
        "googleMapsLink": "https://maps.app.goo.gl/NgRJKxdggcujDF8q8"
    },
    {
        "name": "Aluminaire House",
        "architect": "Albert Frey & A. Lawrence Kocher",
        "year": "1931",
        "address": "500 W Museum Way, Palm Springs, CA 92262",
        "lat": 33.823454594167615,
        "lng": -116.54943509124679,
        "description": "A groundbreaking example of modern architecture, this all-metal prefabricated house was originally built in 1931 and relocated to Palm Springs. It represents one of the first examples of International Style architecture in the United States.",
        "googleMapsLink": "https://maps.app.goo.gl/GFzB94LoFYJHqDfk9"
    },
    {
        "name": "Coachella Valley Savings & Loan #2 (Chase Bank)",
        "architect": "E. Stewart Williams",
        "year": "1960",
        "address": "499 S Palm Canyon Dr, Palm Springs, CA 92262",
        "lat": 33.816138742183384,
        "lng": -116.54679358005525,
        "description": "Originally built as the second Coachella Valley Savings & Loan, this modernist bank building exemplifies E. Stewart Williams' innovative approach to commercial architecture. Now operating as a Chase Bank branch, it maintains its distinctive mid-century modern design features.",
        "googleMapsLink": "https://maps.app.goo.gl/vVtPejLX69pv7Pw56"
    },
    {
        "name": "Kaptur Plaza",
        "architect": "Hugh Kaptur",
        "year": "1977",
        "address": "650 E Tahquitz Canyon Way, Palm Springs, CA 92262",
        "lat": 33.8233063,
        "lng": -116.5415802,
        "description": "A striking example of late modernist commercial architecture, featuring dramatic angular forms and deep-set windows characteristic of Hugh Kaptur's distinctive architectural style.",
        "googleMapsLink": "https://maps.app.goo.gl/kUbMSWLPVVhkMGiC6"
    },
    {
        "name": "Village Manor (Orbit In)",
        "architect": "Herbert Burns",
        "year": "1957",
        "address": "562 W Arenas Rd, Palm Springs, CA 92262",
        "lat": 33.8212275,
        "lng": -116.5520404,
        "description": "A classic example of mid-century modern hotel design by Herbert Burns, featuring distinctive architectural elements and period furnishings that capture the essence of Palm Springs' modernist era.",
        "googleMapsLink": "https://maps.app.goo.gl/McbXpg4bToL9TVs46"
    },
    {
        "name": "Fire Station No. 3",
        "architect": "Hugh Kaptur",
        "year": "1958",
        "address": "590 E Racquet Club Rd, Palm Springs, CA 92262",
        "lat": 33.85215633631934,
        "lng": -116.54104292392732,
        "description": "A modernist fire station designed by Hugh Kaptur, showcasing his distinctive approach to civic architecture.",
        "googleMapsLink": "https://maps.app.goo.gl/tMiT5ggxrywhFJLS8"
    },
    {
        "name": "Fire Station No. 4",
        "architect": "Hugh Kaptur",
        "year": "1964",
        "address": "1300 S La Verne Way, Palm Springs, CA 92264",
        "lat": 33.796754,
        "lng": -116.532102,
        "description": "A modernist fire station designed by Hugh Kaptur, demonstrating his innovative approach to civic architecture.",
        "googleMapsLink": "https://maps.app.goo.gl/86DX6bqxf1uHD5bt8"
    },
    {
        "name": "Musicland Hotel",
        "architect": "Hugh Kaptur",
        "year": "1961",
        "address": "1342 S Palm Canyon Dr, Palm Springs, CA 92264",
        "lat": 33.805401378630904,
        "lng": -116.54560804367067,
        "description": "A distinctive mid-century modern hotel designed by Hugh Kaptur, featuring his characteristic bold architectural style.",
        "googleMapsLink": "https://maps.app.goo.gl/bsP5pSj4d7PAZfQq9"
    },
    {
        "name": "Southern California Gas Company Building",
        "architect": "Robert H. Ricciardi",
        "year": "1969",
        "address": "1800 E Tahquitz Canyon Way, Palm Springs, CA 92262",
        "lat": 33.8252003,
        "lng": -116.5282776,
        "description": "A prime example of desert modernism in commercial architecture, featuring a distinctive folded-plate roof, deep overhangs for sun protection, and a seamless integration with its desert environment. The building's innovative design by Victor Gruen Associates effectively combines functionality with modernist aesthetics.",
        "googleMapsLink": "https://maps.app.goo.gl/oFq9bMNaZJyF5yBx5"
    },
    {
        "name": "Palm Springs Art Museum Architecture and Design Center",
        "architect": "E. Stewart Williams",
        "year": "1960",
        "address": "300 S Palm Canyon Dr, Palm Springs, CA 92262",
        "lat": 33.819146,
        "lng": -116.546788,
        "description": "Originally designed as a bank, this International Style building now serves as the Architecture and Design Center for the Palm Springs Art Museum. The building exemplifies Williams' masterful blend of modernism with desert environment.",
        "googleMapsLink": "https://maps.app.goo.gl/sLbiRe1A13EU5E1x9"
    },
    {
        "name": "The Alley",
        "architect": "William Pereira & Charles Luckman",
        "year": "1958",
        "address": "333 S Palm Canyon Dr, Palm Springs, CA 92262",
        "lat": 33.8191374,
        "lng": -116.5469181,
        "description": "Originally a Robinson's department store, this modernist building features distinctive brise soleil screens and was designed by the renowned firm of Pereira & Luckman. Now known as The Alley, it remains an excellent example of mid-century retail architecture.",
        "googleMapsLink": "https://maps.app.goo.gl/kNpJ8PU3BnryviDX9"
    }
]